[
  {
    "slug": "southwest-dalmatian-rescue-inc",
    "title": "Southwest Dalmatian Rescue, Inc.",
    "id": 10242,
    "location": {
      "address": "Tucson, AZ 85732, USA",
      "street": "P.O. Box 16605",
      "city": "Tucson",
      "state": "Arizona",
      "zip": "85732",
      "country": "US",
      "zoom": 0,
      "lat": 32.22933400000000148111212183721363544464111328125,
      "lng": -110.8772009999999994533936842344701290130615234375
    },
    "phone": "(602) 926-8153",
    "email": "swdalrescue@gmail.com",
    "website": "",
    "twitter": null,
    "facebook": null,
    "isVerified": false
  },
  {
    "slug": "home-again-dalmatian-rescue",
    "title": "Home Again Dalmatian Rescue",
    "id": 12795,
    "location": {
      "address": "Belk, AL 35545, USA",
      "street": "PO BOX 33",
      "city": "Belk",
      "state": "Alabama",
      "zip": "35545",
      "country": "United States",
      "zoom": 0,
      "lat": 33.64362799999999964484231895767152309417724609375,
      "lng": -87.932939000000004625690053217113018035888671875
    },
    "phone": "(205) 932-2888",
    "email": "webmaster@homeagainrescue.com",
    "website": "http://www.homeagainrescue.com",
    "twitter": null,
    "facebook": null,
    "isVerified": false
  },
  {
    "slug": "dalmatian-rescue-of-colorado-melody-kennels",
    "title": "Dalmatian Rescue of Colorado / Melody Kennels",
    "id": 12866,
    "location": {
      "address": "6828 Rimrock Valley Lane, Fort Collins, CO 80526, USA",
      "street": "4801 Valley Court",
      "city": "Fort Collins",
      "state": "Colorado",
      "zip": "80526",
      "country": "US",
      "zoom": 0,
      "lat": 40.49248300000000000409272615797817707061767578125,
      "lng": -105.1649570000000011305019143037497997283935546875
    },
    "phone": "(970) 226-2844",
    "email": "melodee101@gmail.com",
    "website": "http://www.dalmatianrescue.org",
    "twitter": "",
    "facebook": "http://www.facebook.com/pages/Dalmatian-Rescue-of-Colorado/155126887870030?ref=ts&fralmatian Rescue",
    "isVerified": false
  },
  {
    "slug": "dalmatian-rescue-of-puget-sound",
    "title": "Dalmatian Rescue of Puget Sound",
    "id": 13159,
    "location": {
      "address": "803 20th Street, Snohomish, WA 98290, USA",
      "street": "803 - 20th St",
      "city": "Snohomish",
      "state": "Washington",
      "zip": "98290",
      "country": "United States",
      "zoom": 0,
      "lat": 47.9359520000000003392415237613022327423095703125,
      "lng": -122.091329999999999245119397528469562530517578125
    },
    "phone": "(360) 568-9504",
    "email": "rescue@dalmatianrescueofpugetsound.org",
    "website": "http://dalmatianrescueofpugetsound.org",
    "twitter": "",
    "facebook": "http://www.facebook.com/pages/Dalmatian-Rescue-of-Puget-Sound/125748540776760",
    "isVerified": false
  },
  {
    "slug": "dalmatian-rescue-of-tampa-bay",
    "title": "Dalmatian Rescue of Tampa Bay",
    "id": 13627,
    "location": {
      "address": "PO Box 341951, Tampa, FL 33694, USA",
      "street": "13381-13383 Orange Sunset Drive",
      "city": "Tampa",
      "state": "Florida",
      "zip": "33694",
      "country": "US",
      "zoom": 0,
      "lat": 28.07000000000000028421709430404007434844970703125,
      "lng": -82.4899999999999948840923025272786617279052734375
    },
    "phone": "(727) 417-6017",
    "email": "susan@dalrescuetampabay.org",
    "website": "http://www.dalrescuetampabay.org",
    "twitter": "",
    "facebook": "http://www.facebook.com/dalmatianrescue.tampabay",
    "isVerified": false
  },
  {
    "slug": "chocolate-chip-dalmatian-assistance-league-ccdal",
    "title": "Chocolate Chip Dalmatian Assistance League (CCDAL)",
    "id": 14650,
    "location": {
      "address": "Alexandria, VA 22314, USA",
      "street": "",
      "city": "Alexandria",
      "state": "Virginia",
      "zip": "22314",
      "country": "US",
      "zoom": 0,
      "lat": 38.799971999999996796759660355746746063232421875,
      "lng": -77.050690000000003010427462868392467498779296875
    },
    "phone": "(703) 548-5154",
    "email": "ccdal@comcast.net",
    "website": "http://www.ccdal.org",
    "twitter": null,
    "facebook": null,
    "isVerified": false
  },
  {
    "slug": "dalmatian-rescue-inc",
    "title": "Dalmatian Rescue, Inc.",
    "id": 14781,
    "location": {
      "address": "PO Box 640108, North Miami Beach, FL 33164, USA",
      "street": "",
      "city": "North Miami Beach",
      "state": "Florida",
      "zip": "33164",
      "country": "US",
      "zoom": 0,
      "lat": 25.92999999999999971578290569595992565155029296875,
      "lng": -80.18000000000000682121026329696178436279296875
    },
    "phone": "(305) 940-3320",
    "email": "fladalrescue@aol.com",
    "website": "http://www.dalmatianrescue.com",
    "twitter": "",
    "facebook": "https://www.facebook.com/DalmatianRescueSoFla?fref=ts",
    "isVerified": false
  },
  {
    "slug": "carolina-dal-pals-dalmatian-rescue",
    "title": "Carolina Dal Pals Dalmatian Rescue",
    "id": 14901,
    "location": {
      "address": "Wilmington, NC 28408, USA",
      "street": "",
      "city": "Wilmington",
      "state": "North Carolina",
      "zip": "28408",
      "country": "US",
      "zoom": 0,
      "lat": 34.13000000000000255795384873636066913604736328125,
      "lng": -77.900000000000005684341886080801486968994140625
    },
    "phone": "",
    "email": "dalirious@dalpals.org",
    "website": "http://www.dalpals.org",
    "twitter": "",
    "facebook": "https://www.facebook.com/DalPals",
    "isVerified": false
  },
  {
    "slug": "spotted-dreams-dalmatian-rescue",
    "title": "Spotted Dreams Dalmatian Rescue",
    "id": 14960,
    "location": {
      "address": "McMinnville, OR, USA",
      "street": "",
      "city": "McMinnville",
      "state": "Oregon",
      "zip": "97128",
      "country": "US",
      "zoom": 0,
      "lat": 45.210115999999999303327058441936969757080078125,
      "lng": -123.1987160000000045556589611805975437164306640625
    },
    "phone": "(503) 472-8226",
    "email": "spotteddreams@comcast.net",
    "website": "http://wwwangelfire.com/sd2/spotteddreams",
    "twitter": null,
    "facebook": null,
    "isVerified": false
  },
  {
    "slug": "dalmatian-rescue-of-southwest-virginia",
    "title": "Dalmatian Rescue of Southwest Virginia ",
    "id": 15225,
    "location": {
      "address": "1784 Bernard Drive, Elliston, VA 24087, USA",
      "street": "1784 Bernard Drive",
      "city": "Elliston",
      "state": "Virginia",
      "zip": "24087",
      "country": "US",
      "zoom": 0,
      "lat": 37.21847799999999750752976979129016399383544921875,
      "lng": -80.2266910000000024183464120142161846160888671875
    },
    "phone": "540-392-6761",
    "email": "debi.smith@drswv.com",
    "website": "http://drswv.com/ ",
    "twitter": "",
    "facebook": "https://www.facebook.com/pages/Dalmatian-Rescue-of-Southwest-Virginia/107719969260233",
    "isVerified": false
  },
  {
    "slug": "save-the-dalmatians-and-others-canine-rescue-inc",
    "title": "Save the Dalmatians and Others Canine Rescue, Inc.",
    "id": 9514124,
    "location": {
      "address": "Gardena, CA 90247, USA",
      "street": "15507 S Normandie Ave, Box 432",
      "city": "Gardena",
      "state": "California",
      "zip": "90247",
      "country": "US",
      "zoom": 0,
      "lat": 33.8863309999999984256646712310612201690673828125,
      "lng": -118.2935889999999972133082337677478790283203125
    },
    "phone": "",
    "email": "rescue@savethedals.org",
    "website": "http://www.savethedals.org/",
    "twitter": "",
    "facebook": "https://www.facebook.com/pages/Save-the-Dalmatians-and-Others-Canine-Rescue-Inc/116652585254",
    "isVerified": false
  },
  {
    "slug": "rocky-spot-rescue",
    "title": "Rocky Spot Rescue",
    "id": 9515842,
    "location": {
      "address": "Newcastle, OK 73065, USA",
      "street": "PO Box 98",
      "city": "Newcastle",
      "state": "Oklahoma",
      "zip": "73065",
      "country": "US",
      "zoom": 0,
      "lat": 35.26209300000000013142198440618813037872314453125,
      "lng": -97.5897369999999995116013451479375362396240234375
    },
    "phone": "(405) 699-7358",
    "email": "dals@rockyspot.org",
    "website": "http://rockyspot.com",
    "twitter": null,
    "facebook": null,
    "isVerified": false
  },
  {
    "slug": "adopt-a-spot-dalmatian-rescue-inc",
    "title": "Adopt A Spot Dalmatian Rescue, Inc.",
    "id": 9516168,
    "location": {
      "address": "Chesapeake, VA 23321, USA",
      "street": "PO Box 9375",
      "city": "Chesapeake",
      "state": "Virginia",
      "zip": "23321",
      "country": "US",
      "zoom": 0,
      "lat": 36.80328200000000293812263407744467258453369140625,
      "lng": -76.4215990000000005011315806768834590911865234375
    },
    "phone": "757-484-2940",
    "email": "info@adoptaspotdalrescue.com",
    "website": "http://adoptaspotdalrescue.com/",
    "twitter": "",
    "facebook": "https://www.facebook.com/pages/Adopt-A-Spot-Dalmatian-Rescue/305552129278?ref=bookmarks",
    "isVerified": false
  },
  {
    "slug": "spotted-dog-deaf-dalmatian-rescue",
    "title": "Spotted Dog Deaf Dalmatian Rescue",
    "id": 9519007,
    "location": {
      "address": "Middletown, PA 17057, USA",
      "street": "PO Box 275",
      "city": "Middletown",
      "state": "Pennsylvania",
      "zip": "17057",
      "country": "United States",
      "zoom": 0,
      "lat": 40.19981400000000348882167600095272064208984375,
      "lng": -76.7310810000000032005118555389344692230224609375
    },
    "phone": "(717) 260-0155",
    "email": "spotteddogrescue@verizon.net",
    "website": "http://www.spotteddogdalmatianrescue.org",
    "twitter": "",
    "facebook": "https://www.facebook.com/pages/Spotted-Dog-Dalmatian-Rescue/160820957329819",
    "isVerified": false
  },
  {
    "slug": "dal-savers-dalmatian-rescue-inc",
    "title": "Dal-Savers Dalmatian Rescue, Inc.",
    "id": 9519008,
    "location": {
      "address": "Milwaukee, WI 53209, USA",
      "street": "P.O. Box 090151",
      "city": "Milwaukee",
      "state": "Wisconsin",
      "zip": "53209",
      "country": "United States",
      "zoom": 0,
      "lat": 43.12722500000000280806489172391593456268310546875,
      "lng": -87.94328400000000556246959604322910308837890625
    },
    "phone": "(414) 297-9210",
    "email": "",
    "website": "http://www.dalrescue.us",
    "twitter": null,
    "facebook": null,
    "isVerified": false
  },
  {
    "slug": "recycled-canines-dalmatian-rescue",
    "title": "Recycled Canines Dalmatian Rescue",
    "id": 9519009,
    "location": {
      "address": "League City, TX 77574, USA",
      "street": "P.O. Box 236",
      "city": "League City",
      "state": "Texas",
      "zip": "77574",
      "country": "United States",
      "zoom": 0,
      "lat": 29.510000000000001563194018672220408916473388671875,
      "lng": -95.090000000000003410605131648480892181396484375
    },
    "phone": "",
    "email": "dalrescue123@hotmail.com",
    "website": "http://www.recycledcanines.org",
    "twitter": null,
    "facebook": null,
    "isVerified": false
  },
  {
    "slug": "dalmatian-rescue-of-albuquerque",
    "title": "Dalmatian Rescue of Albuquerque",
    "id": 9519010,
    "location": {
      "address": "Albuquerque, NM 87111, USA",
      "street": "",
      "city": "Albuquerque",
      "state": "New Mexico",
      "zip": "87111",
      "country": "United States",
      "zoom": 0,
      "lat": 35.13227100000000291402102448046207427978515625,
      "lng": -106.4994889999999969631971907801926136016845703125
    },
    "phone": "(505) 857-0012",
    "email": "lm51jm@earthlink.net",
    "website": "http://www.adoptapet.com/adoption_rescue/72270.html",
    "twitter": null,
    "facebook": null,
    "isVerified": false
  },
  {
    "slug": "dalmatian-rescue-of-west-los-angeles",
    "title": "Dalmatian Rescue of West Los Angeles",
    "id": 9519011,
    "location": {
      "address": "Los Angeles, CA 90049, USA",
      "street": "",
      "city": "Los Angeles",
      "state": "California",
      "zip": "90049",
      "country": "US",
      "zoom": 0,
      "lat": 34.096305999999998448402038775384426116943359375,
      "lng": -118.498074000000002570232027210295200347900390625
    },
    "phone": "(310) 889-4731",
    "email": "gmckenzie1@earthlink.net",
    "website": "http://www.petfinder.org/shelters/CA422.html",
    "twitter": null,
    "facebook": null,
    "isVerified": false
  },
  {
    "slug": "antelope-valley-dalmatian-rescue",
    "title": "Antelope Valley Dalmatian Rescue",
    "id": 9519012,
    "location": {
      "address": "Lancaster, CA 93539, USA",
      "street": "PO Box 5861",
      "city": "Lancaster",
      "state": "California",
      "zip": "93539",
      "country": "US",
      "zoom": 0,
      "lat": 34.6824500000000028876456781290471553802490234375,
      "lng": -118.165671000000003232344170100986957550048828125
    },
    "phone": "(661) 949-1795",
    "email": "easytospot@earthlink.net",
    "website": "http://www.avdalrescue.org",
    "twitter": null,
    "facebook": null,
    "isVerified": false
  },
  {
    "slug": "dalmatian-rescue-of-the-central-coast",
    "title": "Dalmatian Rescue of the Central Coast",
    "id": 9519013,
    "location": {
      "address": "Pacific Grove, CA 93950, USA",
      "street": "P.O. Box 864",
      "city": "Pacific Grove",
      "state": "California",
      "zip": "93950",
      "country": "United States",
      "zoom": 0,
      "lat": 36.62011799999999794863470015116035938262939453125,
      "lng": -121.9188659999999941874193609692156314849853515625
    },
    "phone": "(831) 372-8215",
    "email": "mocodalresq@aol.com",
    "website": "http://www.adoptapet.com/adoption_rescue/15624.html",
    "twitter": null,
    "facebook": null,
    "isVerified": false
  },
  {
    "slug": "save-a-spot-dalmatian-rescue",
    "title": "Save-A-Spot Dalmatian Rescue",
    "id": 9519014,
    "location": {
      "address": "Turlock, CA, USA",
      "street": "",
      "city": "Turlock",
      "state": "California",
      "zip": "",
      "country": "United States",
      "zoom": 0,
      "lat": 37.49465699999999657165972166694700717926025390625,
      "lng": -120.8465939999999960718923830427229404449462890625
    },
    "phone": "(209) 606-3045",
    "email": "ddulaney2@gmail.com",
    "website": "",
    "twitter": "",
    "facebook": "https://www.facebook.com/pages/Save-A-Spot-Dalmatian-Rescue/127981587259986",
    "isVerified": false
  },
  {
    "slug": "dalmatian-adoption-and-rescue",
    "title": "Dalmatian Adoption and Rescue",
    "id": 9559471,
    "location": {
      "address": "Brampton, ON L6R 1A1, Canada",
      "street": "",
      "city": "Brampton",
      "state": "Ontario",
      "zip": "L6R 1A1",
      "country": "CA",
      "zoom": 0,
      "lat": 43.74451499999999981582732289098203182220458984375,
      "lng": -79.7452449999999970486896927468478679656982421875
    },
    "phone": "(416) 653-2411",
    "email": "dalrescue@hotmail.com",
    "website": "http://www.dalrescue.org",
    "twitter": "",
    "facebook": "https://www.facebook.com/pages/Dalmatian-Adoption-and-Rescue/145298398853334",
    "isVerified": false
  },
  {
    "slug": "poke-a-dots-dalmatians-and-friends-rescue",
    "title": "Poke-A-Dot's Dalmatians and Friends Rescue",
    "id": 9601853,
    "location": {
      "address": "Lodi, CA, USA",
      "street": "",
      "city": "Lodi",
      "state": "California",
      "zip": "",
      "country": "United States",
      "zoom": 0,
      "lat": 38.13414800000000326463123201392590999603271484375,
      "lng": -121.27221900000000687214196659624576568603515625
    },
    "phone": "",
    "email": "pokeadotsrescue@gmail.com",
    "website": "http://www.pokeadotsrescue.com/",
    "twitter": "",
    "facebook": "https://www.facebook.com/pokeadotsrescue?fref=ts",
    "isVerified": false
  },
  {
    "slug": "dalmatian-rescue-of-delaware",
    "title": "Dalmatian Rescue of Delaware",
    "id": 9602251,
    "location": {
      "address": "Milton, DE 19968, USA",
      "street": "",
      "city": "Milton",
      "state": "Delaware",
      "zip": "19968",
      "country": "United States",
      "zoom": 0,
      "lat": 38.77761199999999774945536046288907527923583984375,
      "lng": -75.3099140000000062400431488640606403350830078125
    },
    "phone": "302-242-5675, 302-856-6947",
    "email": "dalresq@verizon.net ",
    "website": "http://awos.petfinder.com/shelters/DE31.html",
    "twitter": null,
    "facebook": null,
    "isVerified": false
  },
  {
    "slug": "spotsavers-dalmatian-assistance-league",
    "title": "SpotSavers Dalmatian Assistance League",
    "id": 9603951,
    "location": {
      "address": "Hermann I Heliport, Saint Louis, MO 63132, USA",
      "street": "",
      "city": "Hermann",
      "state": "Missouri",
      "zip": "63132",
      "country": "United States",
      "zoom": 0,
      "lat": 38.68531500000000278305378742516040802001953125,
      "lng": -90.3798199999999951614881865680217742919921875
    },
    "phone": "(314) 842-8958",
    "email": "spotsavers@att.net ",
    "website": "http://www.spotsavers.org/",
    "twitter": null,
    "facebook": null,
    "isVerified": false
  },
  {
    "slug": "willing-hearts-dalmatian-rescue",
    "title": "Willing Hearts Dalmatian Rescue ",
    "id": 9604210,
    "location": {
      "address": "Cincinnati, OH 45231, USA",
      "street": "",
      "city": "Cincinnati",
      "state": "Ohio",
      "zip": "45231",
      "country": "United States",
      "zoom": 0,
      "lat": 39.24443500000000284444467979483306407928466796875,
      "lng": -84.532703999999995403413777239620685577392578125
    },
    "phone": "(610) 948-5898",
    "email": "willinghearts@mailcity.com",
    "website": "http://awos.petfinder.com/shelters/OH183.html",
    "twitter": null,
    "facebook": null,
    "isVerified": false
  },
  {
    "slug": "dalmatian-assistance-league",
    "title": "Dalmatian Assistance League ",
    "id": 9604759,
    "location": {
      "address": "Southroads Shopping Center, 5331 East 41st Street, Tulsa, OK 74135, USA",
      "street": "5331 E. 41 St.",
      "city": "Tulsa ",
      "state": "Oklahoma",
      "zip": "74135",
      "country": "United States",
      "zoom": 0,
      "lat": 36.10556100000000157024260261096060276031494140625,
      "lng": -95.919839999999993551682564429938793182373046875
    },
    "phone": "(918) 625-2978",
    "email": "nancy@poochesplace.com",
    "website": "http://awos.petfinder.com/shelters/OK78.html",
    "twitter": "",
    "facebook": "https://www.facebook.com/pages/Dalmatian-Assistance-League-Inc-Tulsa-OK/166091523420174",
    "isVerified": false
  },
  {
    "slug": "dogwood-rescue-society",
    "title": "Dogwood Rescue Society",
    "id": 9657632,
    "location": {
      "address": "Vancouver   BC V5K 2E2 Canada",
      "street": "",
      "city": "Vancouver",
      "state": "British Columbia",
      "zip": "V5K 2E2",
      "country": "CA",
      "zoom": 0,
      "lat": 49.280585000000002082742867060005664825439453125,
      "lng": -123.0269440000000003010427462868392467498779296875
    },
    "phone": "(604) 926-1842",
    "email": "dogwoodrescue@shaw.ca",
    "website": "http://www.dogwoodrescue.org",
    "twitter": "",
    "facebook": "https://www.facebook.com/Dogwood-Rescue-Society-620494448083177 ",
    "isVerified": false
  },
  {
    "slug": "friends-for-pets-foundation",
    "title": "Friends For Pets Foundation",
    "id": 9657633,
    "location": {
      "address": "11117 Fleetwood St. Sun Valley CA 91352 United States",
      "street": "11117 Fleetwood St.",
      "city": "Los Angeles",
      "state": "California",
      "zip": "91352",
      "country": "US",
      "zoom": 0,
      "lat": 34.23057200000000221962181967683136463165283203125,
      "lng": -118.3735190000000017107595340348780155181884765625
    },
    "phone": "(818) 767-5919",
    "email": "friendsforpets@hotmail.com",
    "website": "http://www.friendsforpets.org/",
    "twitter": "",
    "facebook": "https://www.facebook.com/pages/Friends-for-Pets/77176309331 ",
    "isVerified": false
  },
  {
    "slug": "spaniel-haven-rescue-at-angels-saving-those-in-need",
    "title": "Spaniel Haven Rescue at Angels Saving Those In Need",
    "id": 9657634,
    "location": {
      "address": "4848 E. Cactus Rd., #510 Scottsdale AZ 85254 United States",
      "street": "4848 E. Cactus Rd., #510",
      "city": "Scottsdale",
      "state": "Arizona",
      "zip": "85254",
      "country": "US",
      "zoom": 0,
      "lat": 33.5992609999999984893293003551661968231201171875,
      "lng": -111.9773540000000053851181291975080966949462890625
    },
    "phone": "(480) 656-9615",
    "email": "spanielhavenrescue@angelssavingthoseinneed.org",
    "website": "http://www.angelssavingthoseinneed.org/",
    "twitter": "",
    "facebook": "https://www.facebook.com/spanielhavenrescue",
    "isVerified": false
  },
  {
    "slug": "dalmatian-organization-of-houston-inc",
    "title": "Dalmatian Organization of Houston, Inc.",
    "id": 9658414,
    "location": {
      "address": "9055 Airport Rd Conroe TX 77030 United States",
      "street": "9055 Airport Rd",
      "city": "Conroe",
      "state": "Texas",
      "zip": "77303",
      "country": "US",
      "zoom": 0,
      "lat": 30.344207999999998293105818447656929492950439453125,
      "lng": -95.4297940000000011195879778824746608734130859375
    },
    "phone": "",
    "email": "Doug.Diehl04@gmail.com",
    "website": "http://www.dalorgofhouston.com/",
    "twitter": null,
    "facebook": null,
    "isVerified": false
  },
  {
    "slug": "dalmatian-rescue-of-illinois-dri",
    "title": "Dalmatian Rescue of Illinois (DRI)",
    "id": 9658415,
    "location": {
      "address": "P.O. Box 434 DeKalb IL 60115 United States",
      "street": "P.O. Box 434",
      "city": "DeKalb",
      "state": "Illinois",
      "zip": "60115",
      "country": "US",
      "zoom": 0,
      "lat": 41.935372000000000980435288511216640472412109375,
      "lng": -88.76600700000000188083504326641559600830078125
    },
    "phone": "(815) 758-3955",
    "email": "susan@dalrescueillinois.net",
    "website": "http://www.dalrescueillinois.org/",
    "twitter": "",
    "facebook": "https://www.facebook.com/dalrescueillinois",
    "isVerified": false
  },
  {
    "slug": "dalmatian-rescue-of-north-texas-inc",
    "title": "Dalmatian Rescue of North Texas, Inc.",
    "id": 9658416,
    "location": {
      "address": "P. O. Box 866081 Plano TX 75086 United States",
      "street": "P. O. Box 866081",
      "city": "Plano",
      "state": "Texas",
      "zip": "75086",
      "country": "US",
      "zoom": 0,
      "lat": 33.02000000000000312638803734444081783294677734375,
      "lng": -96.7000000000000028421709430404007434844970703125
    },
    "phone": "972-250-DALS",
    "email": "adoptme@dalpal.com",
    "website": "http://dalpal.com/",
    "twitter": "",
    "facebook": "https://www.facebook.com/pages/Dalmatian-Rescue-of-North-Texas/120867658806",
    "isVerified": false
  },
  {
    "slug": "dalmation-club-of-greater-new-york",
    "title": "Dalmation Club of Greater New York",
    "id": 9658417,
    "location": {
      "address": "1 Azalea Circle Lafayette Hill PA 19444 United States",
      "street": "1 Azalea Circle",
      "city": "Lafayette Hill",
      "state": "Pennsylvania",
      "zip": "19444",
      "country": "US",
      "zoom": 0,
      "lat": 40.0916610000000019908839021809399127960205078125,
      "lng": -75.2794640000000043755790102295577526092529296875
    },
    "phone": "",
    "email": "progan@optonline.net.",
    "website": "http://www.dcgny.org/",
    "twitter": null,
    "facebook": null,
    "isVerified": false
  },
  {
    "slug": "dalmation-organization-of-tulsa",
    "title": "Dalmation Organization of Tulsa",
    "id": 9658418,
    "location": {
      "address": "Tulsa OK 74107 United States",
      "street": " ",
      "city": "Tulsa",
      "state": "Oklahoma",
      "zip": "74107",
      "country": "US",
      "zoom": 0,
      "lat": 36.099390999999997120539774186909198760986328125,
      "lng": -96.0573299999999932197169982828199863433837890625
    },
    "phone": "(918) 266-5858",
    "email": " ",
    "website": "",
    "twitter": "",
    "facebook": "https://www.facebook.com/pages/Dalmatian-Organization-of-Tulsa/217736251609708",
    "isVerified": false
  },
  {
    "slug": "greater-denver-dalmation-club",
    "title": "Greater Denver Dalmation Club",
    "id": 9658419,
    "location": {
      "address": "Brighton CO 80601 United States",
      "street": " ",
      "city": "Brighton",
      "state": "Colorado",
      "zip": "80601",
      "country": "US",
      "zoom": 0,
      "lat": 39.9726730000000003428795025683939456939697265625,
      "lng": -104.810441999999994777681422419846057891845703125
    },
    "phone": "(303) 683-2829",
    "email": " ",
    "website": "http://www.greaterdenverdals.com/",
    "twitter": "",
    "facebook": "https://www.facebook.com/pages/Greater-Denver-Dalmatian-Club-GDDC/191313555089",
    "isVerified": false
  },
  {
    "slug": "mt-hood-dalmatian-club",
    "title": "Mt. Hood Dalmatian Club",
    "id": 9658420,
    "location": {
      "address": "Mt. Hood OR 97041 United States",
      "street": " ",
      "city": "Mount Hood",
      "state": "Oregon",
      "zip": "97041",
      "country": "US",
      "zoom": 0,
      "lat": 45.373615000000000918589648790657520294189453125,
      "lng": -121.6959509999999937690517981536686420440673828125
    },
    "phone": " ",
    "email": "sptdogcrt@aol.com ",
    "website": "",
    "twitter": null,
    "facebook": null,
    "isVerified": false
  },
  {
    "slug": "puget-sound-dalmation-club",
    "title": "Puget Sound Dalmation Club",
    "id": 9658421,
    "location": {
      "address": "Puget Sound WA 98416 United States",
      "street": " ",
      "city": "Tacoma",
      "state": "Washington",
      "zip": "98416",
      "country": "US",
      "zoom": 0,
      "lat": 47.26278400000000345926309819333255290985107421875,
      "lng": -122.481461999999993395249475724995136260986328125
    },
    "phone": "(253) 639-0941",
    "email": " ",
    "website": "http://www.pugetsounddalmatianclub.com/",
    "twitter": null,
    "facebook": null,
    "isVerified": false
  },
  {
    "slug": "san-diego-county-dalmation-club",
    "title": "San Diego County Dalmation Club ",
    "id": 9658422,
    "location": {
      "address": "Rancho Santa Fe CA 92067 United States",
      "street": " ",
      "city": "Rancho Santa Fe",
      "state": "California",
      "zip": "92067",
      "country": "US",
      "zoom": 0,
      "lat": 33.01767699999999905458025750704109668731689453125,
      "lng": -117.2264569999999963556547299958765506744384765625
    },
    "phone": "858-756-1281",
    "email": "ranchodal@aol.com",
    "website": "http://www.sddals.com/",
    "twitter": "",
    "facebook": "https://www.facebook.com/DalmatianClubOfSanDiegoCounty",
    "isVerified": false
  },
  {
    "slug": "second-chances-dalmatian-rescue",
    "title": "Second Chances Dalmatian Rescue??",
    "id": 9658423,
    "location": {
      "address": "10908 Courthouse Rd., Suite 102   Fredericksburg VA 22408 United States",
      "street": "10908 Courthouse Rd., Suite 102  ",
      "city": "Fredericksburg",
      "state": "Virginia",
      "zip": "22408",
      "country": "US",
      "zoom": 0,
      "lat": 38.25417800000000312365955323912203311920166015625,
      "lng": -77.500711999999992940502124838531017303466796875
    },
    "phone": " ",
    "email": "questions@gotspots.org",
    "website": "http://www.gotspots.org",
    "twitter": "",
    "facebook": "https://www.facebook.com/gotspots.org ",
    "isVerified": false
  },
  {
    "slug": "shadowland-dalmatian-rescue",
    "title": "Shadowland Dalmatian Rescue",
    "id": 9658424,
    "location": {
      "address": "PO Box 3272 Ft. Myers FL 33918 United States",
      "street": "PO Box 3272",
      "city": "Fort Myers",
      "state": "Florida",
      "zip": "33918",
      "country": "US",
      "zoom": 0,
      "lat": 26.68527900000000130376065499149262905120849609375,
      "lng": -81.88456600000000662475940771400928497314453125
    },
    "phone": "(239) 543-7335",
    "email": "dalrescue@sprintmail.com",
    "website": "http://www.adoptapet.com/cgi-bin/public/shelter-details.cgi/display?shelter_id=67902&adopts_out=dogs",
    "twitter": null,
    "facebook": null,
    "isVerified": false
  },
  {
    "slug": "the-dalmation-club-of-the-piedmont",
    "title": "The Dalmation Club of the Piedmont",
    "id": 9658425,
    "location": {
      "address": "1009 Zachary Lane Hillsborough NC 27278 United States",
      "street": "1009 Zachary Lane",
      "city": "Hillsborough",
      "state": "North Carolina",
      "zip": "27278",
      "country": "US",
      "zoom": 0,
      "lat": 36.131473999999997204213286750018596649169921875,
      "lng": -79.0884659999999968249539961107075214385986328125
    },
    "phone": "",
    "email": "gotallyho@gmail.com",
    "website": "http://www.thedcp.org/",
    "twitter": null,
    "facebook": null,
    "isVerified": false
  }
]
